{
  "updated_at": "2025-11-27T14:14:17.342404+08:00",
  "neptune": [
    {
      "devid": 8131,
      "devaddress": 50359167,
      "areaid": 2143,
      "devdescript": "玉泉高分子系北侧",
      "longitude": 120.12542626854709,
      "latitude": 30.268901379832105,
      "simDevaddress": "浙江省 杭州市 西湖区 求是南路 靠近浙江大学微纳加工中心",
      "provider_id": "neptune",
      "provider_name": "尼普顿"
    },
    {
      "devid": 8121,
      "devaddress": 50359157,
      "areaid": 2143,
      "devdescript": "玉泉高分子系北侧",
      "longitude": 120.12542626854709,
      "latitude": 30.268901379832105,
      "simDevaddress": "浙江省 杭州市 西湖区 求是南路 靠近浙江大学微纳加工中心",
      "provider_id": "neptune",
      "provider_name": "尼普顿"
    },
    {
      "devid": 8129,
      "devaddress": 50359165,
      "areaid": 2143,
      "devdescript": "玉泉高分子系北侧",
      "longitude": 120.12542626854709,
      "latitude": 30.268901379832105,
      "simDevaddress": "浙江省 杭州市 西湖区 青芝坞路 靠近浙江大学玉泉校区青芝坞",
      "provider_id": "neptune",
      "provider_name": "尼普顿"
    },
    {
      "devid": 8128,
      "devaddress": 50359164,
      "areaid": 2143,
      "devdescript": "玉泉高分子系北侧",
      "longitude": 120.12542626854709,
      "latitude": 30.268901379832105,
      "simDevaddress": "浙江省 杭州市 西湖区 求是南路 靠近浙江大学微纳加工中心",
      "provider_id": "neptune",
      "provider_name": "尼普顿"
    },
    {
      "devid": 8130,
      "devaddress": 50359166,
      "areaid": 2143,
      "devdescript": "玉泉高分子系北侧",
      "longitude": 120.12542626854709,
      "latitude": 30.268901379832105,
      "simDevaddress": "浙江省 杭州市 西湖区 求是南路 靠近浙江大学微纳加工中心",
      "provider_id": "neptune",
      "provider_name": "尼普顿"
    },
    {
      "devid": 10223,
      "devaddress": 60359123,
      "areaid": 2143,
      "devdescript": "玉泉教七北侧",
      "longitude": 120.12695,
      "latitude": 30.27066,
      "simDevaddress": "浙江省杭州市西湖区",
      "provider_id": "neptune",
      "provider_name": "尼普顿"
    },
    {
      "devid": 10222,
      "devaddress": 60359122,
      "areaid": 2143,
      "devdescript": "玉泉教七北侧",
      "longitude": 120.12698,
      "latitude": 30.27059,
      "simDevaddress": "浙江省杭州市西湖区",
      "provider_id": "neptune",
      "provider_name": "尼普顿"
    },
    {
      "devid": 9501,
      "devaddress": 51059127,
      "areaid": 2143,
      "devdescript": "玉泉教七北侧",
      "longitude": 120.12695,
      "latitude": 30.27066,
      "simDevaddress": "浙江省 杭州市 西湖区 求是北路 靠近浙江大学(玉泉校区)",
      "provider_id": "neptune",
      "provider_name": "尼普顿"
    },
    {
      "devid": 10220,
      "devaddress": 60359120,
      "areaid": 2143,
      "devdescript": "玉泉教十八西侧",
      "longitude": 120.12753,
      "latitude": 30.26709,
      "simDevaddress": "浙江省杭州市西湖区知泉路",
      "provider_id": "neptune",
      "provider_name": "尼普顿"
    },
    {
      "devid": 10221,
      "devaddress": 60359121,
      "areaid": 2143,
      "devdescript": "玉泉教十八西侧",
      "longitude": 120.12753,
      "latitude": 30.267084,
      "simDevaddress": "浙江省杭州市西湖区知泉路",
      "provider_id": "neptune",
      "provider_name": "尼普顿"
    },
    {
      "devid": 8633,
      "devaddress": 50559147,
      "areaid": 2143,
      "devdescript": "玉泉生仪楼南侧",
      "longitude": 120.1280734297563,
      "latitude": 30.26651727633735,
      "simDevaddress": "浙江省 杭州市 西湖区 体菀路 靠近浙江大学(玉泉校区)",
      "provider_id": "neptune",
      "provider_name": "尼普顿"
    },
    {
      "devid": 8634,
      "devaddress": 50559148,
      "areaid": 2143,
      "devdescript": "玉泉生仪楼南侧",
      "longitude": 120.1280734297563,
      "latitude": 30.26651727633735,
      "simDevaddress": "浙江省 杭州市 西湖区 体菀路 靠近浙江大学(玉泉校区)",
      "provider_id": "neptune",
      "provider_name": "尼普顿"
    },
    {
      "devid": 8635,
      "devaddress": 50559149,
      "areaid": 2143,
      "devdescript": "玉泉生仪楼南侧",
      "longitude": 120.1280734297563,
      "latitude": 30.26651727633735,
      "simDevaddress": "浙江省 杭州市 西湖区 体菀路 靠近浙江大学(玉泉校区)",
      "provider_id": "neptune",
      "provider_name": "尼普顿"
    },
    {
      "devid": 8636,
      "devaddress": 50559150,
      "areaid": 2143,
      "devdescript": "玉泉生仪楼南侧",
      "longitude": 120.1280734297563,
      "latitude": 30.26651727633735,
      "simDevaddress": "浙江省 杭州市 西湖区 体菀路 靠近浙江大学(玉泉校区)",
      "provider_id": "neptune",
      "provider_name": "尼普顿"
    },
    {
      "devid": 10356,
      "devaddress": 60459109,
      "areaid": 2143,
      "devdescript": "玉泉教十（内部）",
      "longitude": 120.12760502532814,
      "latitude": 30.26604586678132,
      "simDevaddress": "浙江省杭州市西湖区知泉路",
      "provider_id": "neptune",
      "provider_name": "尼普顿"
    },
    {
      "devid": 8120,
      "devaddress": 50359156,
      "areaid": 2143,
      "devdescript": "玉泉教三北侧",
      "longitude": 120.129265,
      "latitude": 30.269646,
      "simDevaddress": "浙江省 杭州市 西湖区 余杭塘河绿道 靠近彰教庙",
      "provider_id": "neptune",
      "provider_name": "尼普顿"
    },
    {
      "devid": 8126,
      "devaddress": 50359162,
      "areaid": 2143,
      "devdescript": "玉泉曹光彪楼南侧",
      "longitude": 120.12835964125183,
      "latitude": 30.264808537927017,
      "simDevaddress": "浙江省 杭州市 西湖区 青芝坞路 靠近浙江大学玉泉校区青芝坞",
      "provider_id": "neptune",
      "provider_name": "尼普顿"
    },
    {
      "devid": 8127,
      "devaddress": 50359163,
      "areaid": 2143,
      "devdescript": "玉泉曹光彪楼南侧",
      "longitude": 120.12835964125183,
      "latitude": 30.264808537927017,
      "simDevaddress": "浙江省 杭州市 西湖区 青芝坞路 靠近浙江大学玉泉校区青芝坞",
      "provider_id": "neptune",
      "provider_name": "尼普顿"
    },
    {
      "devid": 10367,
      "devaddress": 60459120,
      "areaid": 2143,
      "devdescript": "玉泉曹光彪楼南侧",
      "longitude": 120.12835964125183,
      "latitude": 30.264808537927017,
      "simDevaddress": "浙江省杭州市西湖区青芝坞9号",
      "provider_id": "neptune",
      "provider_name": "尼普顿"
    },
    {
      "devid": 10366,
      "devaddress": 60459119,
      "areaid": 2143,
      "devdescript": "玉泉曹光彪楼南侧",
      "longitude": 120.12835964125183,
      "latitude": 30.264808537927017,
      "simDevaddress": "浙江省杭州市西湖区青芝坞9号",
      "provider_id": "neptune",
      "provider_name": "尼普顿"
    },
    {
      "devid": 10376,
      "devaddress": 60459129,
      "areaid": 2143,
      "devdescript": "玉泉电机楼南侧",
      "longitude": 120.13010093404705,
      "latitude": 30.266855020259477,
      "simDevaddress": "浙江省杭州市西湖区",
      "provider_id": "neptune",
      "provider_name": "尼普顿"
    },
    {
      "devid": 10377,
      "devaddress": 60459130,
      "areaid": 2143,
      "devdescript": "玉泉电机楼南侧",
      "longitude": 120.13010093404705,
      "latitude": 30.266855020259477,
      "simDevaddress": "浙江省杭州市西湖区",
      "provider_id": "neptune",
      "provider_name": "尼普顿"
    },
    {
      "devid": 10349,
      "devaddress": 60459102,
      "areaid": 2143,
      "devdescript": "玉泉建发宿舍（内部）",
      "longitude": 120.1291264465844,
      "latitude": 30.2750686565097,
      "simDevaddress": "浙江省杭州市西湖区",
      "provider_id": "neptune",
      "provider_name": "尼普顿"
    },
    {
      "devid": 10348,
      "devaddress": 60459101,
      "areaid": 2143,
      "devdescript": "玉泉建发宿舍（内部）",
      "longitude": 120.1291264465844,
      "latitude": 30.2750686565097,
      "simDevaddress": "浙江省杭州市西湖区",
      "provider_id": "neptune",
      "provider_name": "尼普顿"
    },
    {
      "devid": 10358,
      "devaddress": 60459111,
      "areaid": 2143,
      "devdescript": "玉泉出版社楼南侧",
      "longitude": 120.13026355515484,
      "latitude": 30.265806285504286,
      "simDevaddress": "浙江省杭州市西湖区玉古路130号",
      "provider_id": "neptune",
      "provider_name": "尼普顿"
    },
    {
      "devid": 10357,
      "devaddress": 60459110,
      "areaid": 2143,
      "devdescript": "玉泉出版社楼南侧",
      "longitude": 120.13026355515484,
      "latitude": 30.265806285504286,
      "simDevaddress": "浙江省杭州市西湖区玉古路130号",
      "provider_id": "neptune",
      "provider_name": "尼普顿"
    },
    {
      "devid": 10574,
      "devaddress": 60659111,
      "areaid": 2143,
      "devdescript": "玉泉科工楼东侧",
      "longitude": 120.13041490382862,
      "latitude": 30.26619475788235,
      "simDevaddress": "浙江省杭州市西湖区玉古路130号",
      "provider_id": "neptune",
      "provider_name": "尼普顿"
    },
    {
      "devid": 10217,
      "devaddress": 60359117,
      "areaid": 2143,
      "devdescript": "玉泉行政楼北侧",
      "longitude": 120.13176,
      "latitude": 30.269293,
      "simDevaddress": "浙江省杭州市西湖区",
      "provider_id": "neptune",
      "provider_name": "尼普顿"
    },
    {
      "devid": 10216,
      "devaddress": 60359116,
      "areaid": 2143,
      "devdescript": "玉泉行政楼北侧",
      "longitude": 120.13176,
      "latitude": 30.269339,
      "simDevaddress": "浙江省杭州市西湖区",
      "provider_id": "neptune",
      "provider_name": "尼普顿"
    },
    {
      "devid": 8125,
      "devaddress": 50359161,
      "areaid": 2143,
      "devdescript": "玉泉原电工厂",
      "longitude": 120.13011026239441,
      "latitude": 30.27606958827281,
      "simDevaddress": "浙江省 杭州市 西湖区 西溪路 靠近庆丰公寓",
      "provider_id": "neptune",
      "provider_name": "尼普顿"
    },
    {
      "devid": 8124,
      "devaddress": 50359160,
      "areaid": 2143,
      "devdescript": "玉泉原电工厂",
      "longitude": 120.13011026239441,
      "latitude": 30.27606958827281,
      "simDevaddress": "浙江省 杭州市 西湖区 西溪路 靠近庆丰公寓",
      "provider_id": "neptune",
      "provider_name": "尼普顿"
    },
    {
      "devid": 10218,
      "devaddress": 60359118,
      "areaid": 2143,
      "devdescript": "玉泉原电工厂",
      "longitude": 120.13011026239441,
      "latitude": 30.27606958827281,
      "simDevaddress": "浙江省杭州市西湖区西溪路413号",
      "provider_id": "neptune",
      "provider_name": "尼普顿"
    },
    {
      "devid": 10219,
      "devaddress": 60359119,
      "areaid": 2143,
      "devdescript": "玉泉原电工厂",
      "longitude": 120.13011026239441,
      "latitude": 30.27606958827281,
      "simDevaddress": "浙江省杭州市西湖区西溪路405号",
      "provider_id": "neptune",
      "provider_name": "尼普顿"
    },
    {
      "devid": 10227,
      "devaddress": 60359102,
      "areaid": 2143,
      "devdescript": "玉泉新桥门南侧",
      "longitude": 120.13314441321967,
      "latitude": 30.27107206066353,
      "simDevaddress": "浙江省杭州市西湖区玉古路",
      "provider_id": "neptune",
      "provider_name": "尼普顿"
    },
    {
      "devid": 10228,
      "devaddress": 60359127,
      "areaid": 2143,
      "devdescript": "玉泉新桥门南侧",
      "longitude": 120.13314441321967,
      "latitude": 30.27107206066353,
      "simDevaddress": "浙江省杭州市西湖区玉古路",
      "provider_id": "neptune",
      "provider_name": "尼普顿"
    },
    {
      "devid": 10231,
      "devaddress": 60359131,
      "areaid": 2143,
      "devdescript": "玉泉新桥门南侧",
      "longitude": 120.13314441321967,
      "latitude": 30.27107206066353,
      "simDevaddress": "浙江省杭州市西湖区玉古路",
      "provider_id": "neptune",
      "provider_name": "尼普顿"
    },
    {
      "devid": 10224,
      "devaddress": 60359124,
      "areaid": 1774,
      "devdescript": "浙大紫金港农学院",
      "longitude": 120.09850297586412,
      "latitude": 30.30255371570799,
      "simDevaddress": "浙江省 杭州市 西湖区 余杭塘河绿道 靠近浙江省城乡规划设计研究院(余杭塘路)",
      "provider_id": "neptune",
      "provider_name": "尼普顿"
    },
    {
      "devid": 10164,
      "devaddress": 60359110,
      "areaid": 1774,
      "devdescript": "浙大紫金港农学院",
      "longitude": 120.09850297586412,
      "latitude": 30.30255371570799,
      "simDevaddress": "浙江省 杭州市 西湖区 紫荆花北路 靠近浙江大学(紫金港校区)环境与资源学院",
      "provider_id": "neptune",
      "provider_name": "尼普顿"
    },
    {
      "devid": 7210,
      "devaddress": 40759091,
      "areaid": 1774,
      "devdescript": "浙江大学医学院",
      "longitude": 120.0905426914083,
      "latitude": 30.301264028862697,
      "simDevaddress": "浙江省 杭州市 西湖区 余杭塘路 靠近浙江大学(紫金港校区)生命科学研究交叉中心",
      "provider_id": "neptune",
      "provider_name": "尼普顿"
    },
    {
      "devid": 10568,
      "devaddress": 60659105,
      "areaid": 1774,
      "devdescript": "浙大紫金港生科院",
      "longitude": 120.097084,
      "latitude": 30.302456,
      "simDevaddress": "浙江省杭州市西湖区遵义西路",
      "provider_id": "neptune",
      "provider_name": "尼普顿"
    },
    {
      "devid": 10569,
      "devaddress": 60659106,
      "areaid": 1774,
      "devdescript": "浙大紫金港生科院",
      "longitude": 120.09701,
      "latitude": 30.302519,
      "simDevaddress": "浙江省杭州市西湖区遵义西路",
      "provider_id": "neptune",
      "provider_name": "尼普顿"
    },
    {
      "devid": 10235,
      "devaddress": 60359135,
      "areaid": 1774,
      "devdescript": "浙大紫金港药学院",
      "longitude": 120.0926175839741,
      "latitude": 30.302827660961174,
      "simDevaddress": "浙江省 杭州市 西湖区 遵义西路 靠近浙江大学紫金港校区药学院",
      "provider_id": "neptune",
      "provider_name": "尼普顿"
    },
    {
      "devid": 10232,
      "devaddress": 60359132,
      "areaid": 1774,
      "devdescript": "浙大紫金港药学院",
      "longitude": 120.0926175839741,
      "latitude": 30.302827660961174,
      "simDevaddress": "浙江省杭州市西湖区遵义西路",
      "provider_id": "neptune",
      "provider_name": "尼普顿"
    },
    {
      "devid": 10234,
      "devaddress": 60359134,
      "areaid": 1774,
      "devdescript": "浙大紫金港药学院",
      "longitude": 120.0926175839741,
      "latitude": 30.302827660961174,
      "simDevaddress": "浙江省杭州市西湖区遵义西路",
      "provider_id": "neptune",
      "provider_name": "尼普顿"
    },
    {
      "devid": 10226,
      "devaddress": 60359126,
      "areaid": 1774,
      "devdescript": "浙大紫金港药学院",
      "longitude": 120.0926175839741,
      "latitude": 30.302827660961174,
      "simDevaddress": "浙江省杭州市西湖区遵义西路",
      "provider_id": "neptune",
      "provider_name": "尼普顿"
    },
    {
      "devid": 8133,
      "devaddress": 50359169,
      "areaid": 1774,
      "devdescript": "浙江大学医学院",
      "longitude": 120.0905426914083,
      "latitude": 30.301264028862697,
      "simDevaddress": "浙江省 杭州市 西湖区 余杭塘路 靠近彰教庙",
      "provider_id": "neptune",
      "provider_name": "尼普顿"
    },
    {
      "devid": 8135,
      "devaddress": 50359171,
      "areaid": 1774,
      "devdescript": "浙江大学医学院",
      "longitude": 120.0905426914083,
      "latitude": 30.301264028862697,
      "simDevaddress": "浙江省 杭州市 西湖区 余杭塘路 靠近彰教庙",
      "provider_id": "neptune",
      "provider_name": "尼普顿"
    },
    {
      "devid": 8137,
      "devaddress": 50359173,
      "areaid": 1774,
      "devdescript": "浙江大学医学院",
      "longitude": 120.0905426914083,
      "latitude": 30.301264028862697,
      "simDevaddress": "浙江省 杭州市 西湖区 余杭塘河绿道 靠近彰教庙",
      "provider_id": "neptune",
      "provider_name": "尼普顿"
    },
    {
      "devid": 8123,
      "devaddress": 50359159,
      "areaid": 1774,
      "devdescript": "浙江大学医学院",
      "longitude": 120.0905426914083,
      "latitude": 30.301264028862697,
      "simDevaddress": "浙江省 杭州市 西湖区 余杭塘河绿道 靠近彰教庙",
      "provider_id": "neptune",
      "provider_name": "尼普顿"
    },
    {
      "devid": 8136,
      "devaddress": 50359172,
      "areaid": 1774,
      "devdescript": "浙江大学医学院",
      "longitude": 120.0905426914083,
      "latitude": 30.301264028862697,
      "simDevaddress": "浙江省 杭州市 西湖区 余杭塘河绿道 靠近彰教庙",
      "provider_id": "neptune",
      "provider_name": "尼普顿"
    },
    {
      "devid": 8122,
      "devaddress": 50359158,
      "areaid": 1774,
      "devdescript": "浙江大学医学院",
      "longitude": 120.0905426914083,
      "latitude": 30.301264028862697,
      "simDevaddress": "浙江省 杭州市 西湖区 余杭塘河绿道 靠近彰教庙",
      "provider_id": "neptune",
      "provider_name": "尼普顿"
    },
    {
      "devid": 8132,
      "devaddress": 50359168,
      "areaid": 1774,
      "devdescript": "浙江大学医学院",
      "longitude": 120.0905426914083,
      "latitude": 30.301264028862697,
      "simDevaddress": "浙江省 杭州市 西湖区 余杭塘路 靠近彰教庙",
      "provider_id": "neptune",
      "provider_name": "尼普顿"
    },
    {
      "devid": 8134,
      "devaddress": 50359170,
      "areaid": 1774,
      "devdescript": "浙江大学医学院",
      "longitude": 120.0905426914083,
      "latitude": 30.301264028862697,
      "simDevaddress": "浙江省 杭州市 西湖区 余杭塘路 靠近彰教庙",
      "provider_id": "neptune",
      "provider_name": "尼普顿"
    },
    {
      "devid": 6770,
      "devaddress": 40359108,
      "areaid": 1774,
      "devdescript": "浙江大学医学院",
      "longitude": 120.0905426914083,
      "latitude": 30.301264028862697,
      "simDevaddress": "浙江省 杭州市 西湖区 余杭塘路 靠近彰教庙",
      "provider_id": "neptune",
      "provider_name": "尼普顿"
    },
    {
      "devid": 7205,
      "devaddress": 40759086,
      "areaid": 1774,
      "devdescript": "浙江大学医学院",
      "longitude": 120.0905426914083,
      "latitude": 30.301264028862697,
      "simDevaddress": "浙江省 杭州市 西湖区 余杭塘路 靠近彰教庙",
      "provider_id": "neptune",
      "provider_name": "尼普顿"
    },
    {
      "devid": 7203,
      "devaddress": 40759084,
      "areaid": 1774,
      "devdescript": "浙江大学医学院",
      "longitude": 120.0905426914083,
      "latitude": 30.301264028862697,
      "simDevaddress": "浙江省 杭州市 西湖区 余杭塘路 靠近彰教庙",
      "provider_id": "neptune",
      "provider_name": "尼普顿"
    },
    {
      "devid": 7213,
      "devaddress": 40759094,
      "areaid": 1774,
      "devdescript": "浙江大学医学院",
      "longitude": 120.0905426914083,
      "latitude": 30.301264028862697,
      "simDevaddress": "浙江省 杭州市 西湖区 遵义西路 靠近浙江大学紫金港校区药学院",
      "provider_id": "neptune",
      "provider_name": "尼普顿"
    },
    {
      "devid": 7206,
      "devaddress": 40759087,
      "areaid": 1774,
      "devdescript": "浙江大学医学院",
      "longitude": 120.0905426914083,
      "latitude": 30.301264028862697,
      "simDevaddress": "浙江省 杭州市 西湖区 余杭塘河绿道 靠近彰教庙",
      "provider_id": "neptune",
      "provider_name": "尼普顿"
    },
    {
      "devid": 8626,
      "devaddress": 50559141,
      "areaid": 1774,
      "devdescript": "浙江大学医学院",
      "longitude": 120.0905426914083,
      "latitude": 30.301264028862697,
      "simDevaddress": "浙江省 杭州市 西湖区 余杭塘路 靠近蒋村西溪人家",
      "provider_id": "neptune",
      "provider_name": "尼普顿"
    },
    {
      "devid": 7211,
      "devaddress": 40759092,
      "areaid": 1774,
      "devdescript": "浙江大学医学院",
      "longitude": 120.0905426914083,
      "latitude": 30.301264028862697,
      "simDevaddress": "浙江省 杭州市 西湖区 遵义西路 靠近浙江大学紫金港校区行政服务办事大厅",
      "provider_id": "neptune",
      "provider_name": "尼普顿"
    },
    {
      "devid": 7212,
      "devaddress": 40759093,
      "areaid": 1774,
      "devdescript": "浙江大学医学院",
      "longitude": 120.0905426914083,
      "latitude": 30.301264028862697,
      "simDevaddress": "浙江省 杭州市 西湖区 遵义西路 靠近浙江大学紫金港校区药学院",
      "provider_id": "neptune",
      "provider_name": "尼普顿"
    },
    {
      "devid": 7209,
      "devaddress": 40759090,
      "areaid": 1774,
      "devdescript": "浙江大学医学院",
      "longitude": 120.0905426914083,
      "latitude": 30.301264028862697,
      "simDevaddress": "浙江省 杭州市 西湖区 余杭塘河绿道 靠近彰教庙",
      "provider_id": "neptune",
      "provider_name": "尼普顿"
    },
    {
      "devid": 7208,
      "devaddress": 40759089,
      "areaid": 1774,
      "devdescript": "浙江大学医学院",
      "longitude": 120.0905426914083,
      "latitude": 30.301264028862697,
      "simDevaddress": "浙江省 杭州市 西湖区 余杭塘河绿道 靠近彰教庙",
      "provider_id": "neptune",
      "provider_name": "尼普顿"
    },
    {
      "devid": 7207,
      "devaddress": 40759088,
      "areaid": 1774,
      "devdescript": "浙江大学医学院",
      "longitude": 120.0905426914083,
      "latitude": 30.301264028862697,
      "simDevaddress": "浙江省 杭州市 西湖区 余杭塘河绿道 靠近彰教庙",
      "provider_id": "neptune",
      "provider_name": "尼普顿"
    },
    {
      "devid": 10362,
      "devaddress": 60459115,
      "areaid": 1774,
      "devdescript": "浙大紫金港东四北",
      "longitude": 120.09661,
      "latitude": 30.30552,
      "simDevaddress": "浙江省杭州市西湖区藕舫南路",
      "provider_id": "neptune",
      "provider_name": "尼普顿"
    },
    {
      "devid": 10363,
      "devaddress": 60459116,
      "areaid": 1774,
      "devdescript": "浙大紫金港东四北",
      "longitude": 120.09662,
      "latitude": 30.305532,
      "simDevaddress": "浙江省杭州市西湖区藕舫南路",
      "provider_id": "neptune",
      "provider_name": "尼普顿"
    },
    {
      "devid": 10361,
      "devaddress": 60459114,
      "areaid": 1774,
      "devdescript": "浙大紫金港东四北",
      "longitude": 120.096596,
      "latitude": 30.305548,
      "simDevaddress": "浙江省杭州市西湖区藕舫南路",
      "provider_id": "neptune",
      "provider_name": "尼普顿"
    },
    {
      "devid": 10375,
      "devaddress": 60459128,
      "areaid": 1774,
      "devdescript": "浙大紫金港东四北",
      "longitude": 120.0966,
      "latitude": 30.305563,
      "simDevaddress": "浙江省杭州市西湖区藕舫南路",
      "provider_id": "neptune",
      "provider_name": "尼普顿"
    },
    {
      "devid": 8642,
      "devaddress": 50559157,
      "areaid": 1774,
      "devdescript": "浙大紫金港东区留学生A座",
      "longitude": 120.09350728281304,
      "latitude": 30.315083425661697,
      "simDevaddress": "浙江省 杭州市 西湖区 宜山路 靠近浙大紫金港校区站",
      "provider_id": "neptune",
      "provider_name": "尼普顿"
    }
  ]
}
